[USB3]
#BESTPOSA,USB3,0,43.5,FINESTEERING,2354,587680.000,02000000,cdba,17399;SOL_COMPUTED,SINGLE,51.07945170660,-114.13146177579,1114.5285,-16.6000,WGS84,1.3671,1.0306,2.4297,"",0.000,0.000,32,27,27,27,00,06,35,33*7ba098b6
<BESTXYZ USB3 0 44.5 FINESTEERING 2354 587680.000 02000000 44cf 17399
<     SOL_COMPUTED SINGLE -1641805.5202 -3664901.8091 4939956.5800 1.1371 1.6318 2.2088 SOL_COMPUTED DOPPLER_VELOCITY 0.0055 0.0171 0.0063 0.0280 0.0382 0.0535 "" 0.000 0.000 0.000 32 27 27 27 0 06 35 33
[USB3]
#BESTPOSA,USB3,0,43.5,FINESTEERING,2354,587681.000,02000000,cdba,17399;SOL_COMPUTED,SINGLE,51.07945158722,-114.13146198041,1114.4908,-16.6000,WGS84,1.3675,1.0310,2.4304,"",0.000,0.000,32,27,27,27,00,06,35,33*018993d7
<BESTXYZ USB3 0 43.5 FINESTEERING 2354 587681.000 02000000 44cf 17399
<     SOL_COMPUTED SINGLE -1641805.5278 -3664901.7911 4939956.5424 1.1373 1.6327 2.2093 SOL_COMPUTED DOPPLER_VELOCITY -0.0749 0.0838 -0.0126 0.0280 0.0382 0.0534 "" 0.000 0.000 0.000 32 27 27 27 0 06 35 33
[USB3]
#BESTPOSA,USB3,0,43.0,FINESTEERING,2354,587682.000,02000000,cdba,17399;SOL_COMPUTED,SINGLE,51.07945075209,-114.13146178381,1114.4940,-16.6000,WGS84,1.3665,1.0301,2.4283,"",0.000,0.000,30,27,27,27,00,06,35,33*b99c38a2
<BESTXYZ USB3 0 43.0 FINESTEERING 2354 587682.000 02000000 44cf 17399
<     SOL_COMPUTED SINGLE -1641805.5456 -3664901.8645 4939956.4864 1.1369 1.6309 2.2075 SOL_COMPUTED DOPPLER_VELOCITY 0.0103 -0.1793 -0.0399 0.0282 0.0417 0.0537 "" 0.000 0.000 0.000 30 27 27 27 0 06 35 33
[USB3]
#BESTPOSA,USB3,0,43.0,FINESTEERING,2354,587683.000,02000000,cdba,17399;SOL_COMPUTED,SINGLE,51.07945018325,-114.13146209173,1114.5785,-16.6000,WGS84,1.3668,1.0300,2.4286,"",0.000,0.000,30,27,27,27,00,06,35,33*6668ca0e
<BESTXYZ USB3 0 43.0 FINESTEERING 2354 587683.000 02000000 44cf 17399
<     SOL_COMPUTED SINGLE -1641805.6071 -3664901.9491 4939956.5124 1.1386 1.6298 2.2078 SOL_COMPUTED DOPPLER_VELOCITY -0.0001 0.0451 0.0548 0.0282 0.0407 0.0536 "" 0.000 0.000 0.000 30 27 27 27 0 06 35 33
[USB3]
#BESTPOSA,USB3,0,47.5,FINESTEERING,2354,587684.000,02000000,cdba,17399;SOL_COMPUTED,SINGLE,51.07945057295,-114.13146264054,1114.5855,-16.6000,WGS84,1.3666,1.0294,2.4273,"",0.000,0.000,30,27,27,27,00,06,35,33*b2b27d62
<BESTXYZ USB3 0 47.5 FINESTEERING 2354 587684.000 02000000 44cf 17399
<     SOL_COMPUTED SINGLE -1641805.6302 -3664901.9066 4939956.5452 1.1379 1.6290 2.2069 SOL_COMPUTED DOPPLER_VELOCITY 0.0180 0.1324 0.0862 0.0284 0.0392 0.0556 "" 0.000 0.000 0.000 30 27 27 27 0 06 35 33
[USB3]
#BESTPOSA,USB3,0,48.5,FINESTEERING,2354,587685.000,02000000,cdba,17399;SOL_COMPUTED,SINGLE,51.07944908476,-114.13146202385,1114.6900,-16.6000,WGS84,1.3647,1.0271,2.4262,"",0.000,0.000,30,27,27,27,00,06,35,33*63298cb6
<BESTXYZ USB3 0 48.5 FINESTEERING 2354 587685.000 02000000 44cf 17399
<     SOL_COMPUTED SINGLE -1641805.6703 -3664902.1017 4939956.5224 1.1364 1.6279 2.2051 SOL_COMPUTED DOPPLER_VELOCITY -0.2347 -0.1997 0.0844 0.0284 0.0392 0.0556 "" 0.000 0.000 0.000 30 27 27 27 0 06 35 33
[USB3]
#BESTPOSA,USB3,0,47.5,FINESTEERING,2354,587686.000,02000000,cdba,17399;SOL_COMPUTED,SINGLE,51.07944810730,-114.13147042349,1114.6550,-16.6000,WGS84,1.3644,1.0266,2.4218,"",0.000,0.000,30,27,27,27,00,06,35,33*8e4d5a29
<BESTXYZ USB3 0 47.5 FINESTEERING 2354 587686.000 02000000 44cf 17399
<     SOL_COMPUTED SINGLE -1641806.2332 -3664901.9182 4939956.4268 1.1357 1.6258 2.2017 SOL_COMPUTED DOPPLER_VELOCITY -0.7470 -0.0266 -0.0232 0.0288 0.0425 0.0557 "" 0.000 0.000 0.000 30 27 27 27 0 06 35 33
[USB3]
#BESTPOSA,USB3,0,47.5,FINESTEERING,2354,587687.000,02000000,cdba,17399;SOL_COMPUTED,SINGLE,51.07944394497,-114.13148638943,1114.6026,-16.6000,WGS84,1.3587,1.0260,2.4154,"",0.000,0.000,29,27,27,27,00,06,35,33*a9a99d80
<BESTXYZ USB3 0 47.5 FINESTEERING 2354 587687.000 02000000 44cf 17399
<     SOL_COMPUTED SINGLE -1641807.3883 -3664901.7595 4939956.0952 1.1341 1.6161 2.1990 SOL_COMPUTED DOPPLER_VELOCITY -1.0429 0.0465 -0.3814 0.0285 0.0408 0.0557 "" 0.000 0.000 0.000 29 27 27 27 0 06 35 33
[USB3]
#BESTPOSA,USB3,0,47.5,FINESTEERING,2354,587688.000,02000000,cdba,17399;SOL_COMPUTED,SINGLE,51.07943846377,-114.13149909497,1114.6306,-16.6000,WGS84,1.3600,1.0285,2.4035,"",0.000,0.000,30,27,27,27,00,06,35,33*94892df3
<BESTXYZ USB3 0 47.5 FINESTEERING 2354 587688.000 02000000 44cf 17399
<     SOL_COMPUTED SINGLE -1641808.4022 -3664901.8445 4939955.7337 1.1323 1.6119 2.1918 SOL_COMPUTED DOPPLER_VELOCITY -1.1370 0.5062 -0.1163 0.0286 0.0408 0.0557 "" 0.000 0.000 0.000 30 27 27 27 0 06 35 33
[USB3]
#BESTPOSA,USB3,0,48.0,FINESTEERING,2354,587689.000,02000000,cdba,17399;SOL_COMPUTED,SINGLE,51.07943406490,-114.13151612934,1114.5032,-16.6000,WGS84,1.3606,1.0246,2.3807,"",0.000,0.000,29,27,27,27,00,06,35,33*c16c49c8
<BESTXYZ USB3 0 48.0 FINESTEERING 2354 587689.000 02000000 44cf 17399
<     SOL_COMPUTED SINGLE -1641809.6148 -3664901.6309 4939955.3272 1.1298 1.6005 2.1751 SOL_COMPUTED DOPPLER_VELOCITY -1.1958 0.2775 -0.6252 0.0294 0.0444 0.0561 "" 0.000 0.000 0.000 29 27 27 27 0 06 35 33
[USB3]
#BESTPOSA,USB3,0,44.5,FINESTEERING,2354,587690.000,02000000,cdba,17399;SOL_COMPUTED,SINGLE,51.07942950945,-114.13153236852,1114.5141,-16.6000,WGS84,1.3597,1.0238,2.3810,"",0.000,0.000,29,27,27,26,00,06,35,33*78c4e01d
<BESTXYZ USB3 0 44.5 FINESTEERING 2354 587690.000 02000000 44cf 17399
<     SOL_COMPUTED SINGLE -1641810.8175 -3664901.5317 4939955.0172 1.1309 1.5989 2.1751 SOL_COMPUTED DOPPLER_VELOCITY -1.1380 0.1975 -0.5869 0.0286 0.0408 0.0538 "" 0.000 0.000 0.000 29 27 27 26 0 06 35 33
[USB3]
#BESTPOSA,USB3,0,44.5,FINESTEERING,2354,587691.000,02000000,cdba,17399;SOL_COMPUTED,SINGLE,51.07942490249,-114.13154854663,1114.5067,-16.6000,WGS84,1.3594,1.0233,2.3805,"",0.000,0.000,28,27,27,26,00,06,35,33*b7c93c4e
<BESTXYZ USB3 0 44.5 FINESTEERING 2354 587691.000 02000000 44cf 17399
<     SOL_COMPUTED SINGLE -1641812.0135 -3664901.4279 4939954.6894 1.1306 1.5984 2.1746 SOL_COMPUTED DOPPLER_VELOCITY -1.0698 0.1313 -0.3990 0.0286 0.0411 0.0565 "" 0.000 0.000 0.000 28 27 27 26 0 06 35 33
[USB3]
#BESTPOSA,USB3,0,46.5,FINESTEERING,2354,587692.000,02000000,cdba,17399;SOL_COMPUTED,SINGLE,51.07941948994,-114.13156211078,1114.5289,-16.6000,WGS84,1.3602,1.0273,2.3869,"",0.000,0.000,30,27,27,27,00,06,35,33*29536f1c
<BESTXYZ USB3 0 46.5 FINESTEERING 2354 587692.000 02000000 44cf 17399
<     SOL_COMPUTED SINGLE -1641813.0784 -3664901.4795 4939954.3283 1.1314 1.6050 2.1786 SOL_COMPUTED DOPPLER_VELOCITY -0.9838 0.0473 -0.4586 0.0284 0.0399 0.0542 "" 0.000 0.000 0.000 30 27 27 27 0 06 35 33
[USB3]
#BESTPOSA,USB3,0,48.0,FINESTEERING,2354,587693.000,02000000,cdba,17399;SOL_COMPUTED,SINGLE,51.07941367737,-114.13157048337,1115.0856,-16.6000,WGS84,1.3593,1.0294,2.3919,"",0.000,0.000,30,27,27,26,00,06,35,33*01bacbd9
<BESTXYZ USB3 0 48.0 FINESTEERING 2354 587693.000 02000000 44cf 17399
<     SOL_COMPUTED SINGLE -1641813.9626 -3664902.0180 4939954.3551 1.1296 1.6108 2.1813 SOL_COMPUTED DOPPLER_VELOCITY -0.8940 -0.2039 -0.2977 0.0292 0.0418 0.0547 "" 0.000 0.000 0.000 30 27 27 26 0 06 35 33
[USB3]
#BESTPOSA,USB3,0,47.0,FINESTEERING,2354,587694.000,02000000,cdba,17399;SOL_COMPUTED,SINGLE,51.07940894578,-114.13159461573,1113.8799,-16.6000,WGS84,1.3595,1.0255,2.3830,"",0.000,0.000,30,27,27,26,00,06,35,33*e48ddaf2
<BESTXYZ USB3 0 47.0 FINESTEERING 2354 587694.000 02000000 44cf 17399
<     SOL_COMPUTED SINGLE -1641815.3640 -3664901.0090 4939953.0863 1.1292 1.6039 2.1752 SOL_COMPUTED DOPPLER_VELOCITY -1.2038 -0.1478 -0.1768 0.0284 0.0402 0.0574 "" 0.000 0.000 0.000 30 27 27 26 0 06 35 33
[USB3]
#BESTPOSA,USB3,0,47.0,FINESTEERING,2354,587695.000,02000000,cdba,17399;SOL_COMPUTED,SINGLE,51.07940300687,-114.13160213331,1115.0285,-16.6000,WGS84,1.3594,1.0327,2.3947,"",0.000,0.000,29,27,27,26,00,06,35,33*7489dc3e
<BESTXYZ USB3 0 47.0 FINESTEERING 2354 587695.000 02000000 44cf 17399
<     SOL_COMPUTED SINGLE -1641816.3501 -3664901.9213 4939953.5648 1.1311 1.6146 2.1823 SOL_COMPUTED DOPPLER_VELOCITY -1.0370 -0.3526 -0.1267 0.0302 0.0422 0.0555 "" 0.000 0.000 0.000 29 27 27 26 0 06 35 33
[USB3]
#BESTPOSA,USB3,0,48.5,FINESTEERING,2354,587696.000,02000000,cdba,17399;SOL_COMPUTED,SINGLE,51.07939740603,-114.13162103127,1114.4794,-16.6000,WGS84,1.3600,1.0979,2.5054,"",0.000,0.000,28,26,26,26,00,06,35,33*423e6abb
<BESTXYZ USB3 0 48.5 FINESTEERING 2354 587696.000 02000000 44cf 17399
<     SOL_COMPUTED SINGLE -1641817.6161 -3664901.5075 4939952.7460 1.1405 1.7178 2.2539 SOL_COMPUTED DOPPLER_VELOCITY -1.3525 -0.2333 -0.3761 0.0285 0.0401 0.0551 "" 0.000 0.000 0.000 28 26 26 26 0 06 35 33
[USB3]
#BESTPOSA,USB3,0,46.0,FINESTEERING,2354,587697.000,02000000,cdba,17399;SOL_COMPUTED,SINGLE,51.07939083819,-114.13163984144,1114.6025,-16.6000,WGS84,1.3530,1.0276,2.3891,"",0.000,0.000,30,27,27,26,00,06,35,33*f9199c92
<BESTXYZ USB3 0 46.0 FINESTEERING 2354 587697.000 02000000 44cf 17399
<     SOL_COMPUTED SINGLE -1641819.0833 -3664901.5579 4939952.3827 1.1276 1.6126 2.1732 SOL_COMPUTED DOPPLER_VELOCITY -1.2150 0.1556 -0.1002 0.0286 0.0430 0.0555 "" 0.000 0.000 0.000 30 27 27 26 0 06 35 33
[USB3]
#BESTPOSA,USB3,0,46.0,FINESTEERING,2354,587698.000,02000000,cdba,17399;SOL_COMPUTED,SINGLE,51.07938659759,-114.13165135643,1114.6714,-16.6000,WGS84,1.3434,1.0329,2.4115,"",0.000,0.000,30,27,27,25,00,06,35,33*03c36399
<BESTXYZ USB3 0 46.0 FINESTEERING 2354 587698.000 02000000 44cf 17399
<     SOL_COMPUTED SINGLE -1641819.9877 -3664901.6025 4939952.1398 1.1277 1.6190 2.1896 SOL_COMPUTED DOPPLER_VELOCITY -1.1614 0.0269 -0.3392 0.0294 0.0446 0.0549 "" 0.000 0.000 0.000 30 27 27 25 0 06 35 33
[USB3]
#BESTPOSA,USB3,0,45.0,FINESTEERING,2354,587699.000,02000000,cdba,17399;SOL_COMPUTED,SINGLE,51.07938144402,-114.13166154256,1115.1747,-16.6000,WGS84,1.3371,1.0330,2.3995,"",0.000,0.000,30,27,27,26,00,06,35,33*678a31b0
<BESTXYZ USB3 0 45.0 FINESTEERING 2354 587699.000 02000000 44cf 17399
<     SOL_COMPUTED SINGLE -1641820.9509 -3664902.0063 4939952.1711 1.1267 1.6199 2.1723 SOL_COMPUTED DOPPLER_VELOCITY -1.0292 -0.3419 -0.5958 0.0286 0.0430 0.0555 "" 0.000 0.000 0.000 30 27 27 26 0 06 35 33
[USB3]
#BESTPOSA,USB3,0,45.0,FINESTEERING,2354,587700.000,02000000,cdba,17399;SOL_COMPUTED,SINGLE,51.07937468119,-114.13168047209,1114.7486,-16.6000,WGS84,1.3350,1.0716,2.4743,"",0.000,0.000,29,26,26,25,00,06,35,33*0f86a5c5
<BESTXYZ USB3 0 45.0 FINESTEERING 2354 587700.000 02000000 44cf 17399
<     SOL_COMPUTED SINGLE -1641822.2916 -3664901.7539 4939951.3669 1.1308 1.6837 2.2224 SOL_COMPUTED DOPPLER_VELOCITY -1.2518 -0.1901 -0.5786 0.0293 0.0415 0.0566 "" 0.000 0.000 0.000 29 26 26 25 0 06 35 33
[USB3]
#BESTPOSA,USB3,0,46.0,FINESTEERING,2354,587701.000,02000000,cdba,17399;SOL_COMPUTED,SINGLE,51.07936762713,-114.13169540535,1114.8523,-16.6000,WGS84,1.3356,1.0742,2.4751,"",0.000,0.000,30,27,27,27,00,06,35,33*44e331a8
<BESTXYZ USB3 0 46.0 FINESTEERING 2354 587701.000 02000000 44cf 17399
<     SOL_COMPUTED SINGLE -1641823.5231 -3664901.9427 4939950.9545 1.1329 1.6847 2.2231 SOL_COMPUTED DOPPLER_VELOCITY -1.0334 -0.3750 -0.7002 0.0294 0.0439 0.0558 "" 0.000 0.000 0.000 30 27 27 27 0 06 35 33
[USB3]
#BESTPOSA,USB3,0,46.0,FINESTEERING,2354,587702.000,02000000,cdba,17399;SOL_COMPUTED,SINGLE,51.07936177468,-114.13168475385,1118.7953,-16.6000,WGS84,1.3362,1.0360,2.4042,"",0.000,0.000,31,27,27,25,00,06,35,33*6a3e23bb
<BESTXYZ USB3 0 46.0 FINESTEERING 2354 587702.000 02000000 44cf 17399
<     SOL_COMPUTED SINGLE -1641824.0617 -3664904.9709 4939953.6131 1.1284 1.6229 2.1753 SOL_COMPUTED DOPPLER_VELOCITY -0.9262 -0.2663 -0.5591 0.0295 0.0433 0.0544 "" 0.000 0.000 0.000 31 27 27 25 0 06 35 33
[USB3]
#BESTPOSA,USB3,0,47.5,FINESTEERING,2354,587703.000,02000000,cdba,17399;SOL_COMPUTED,SINGLE,51.07935466079,-114.13168873153,1120.7167,-16.6000,WGS84,1.3425,1.0419,2.3974,"",0.000,0.000,29,26,26,25,00,06,35,33*c2cf3e1b
<BESTXYZ USB3 0 47.5 FINESTEERING 2354 587703.000 02000000 44cf 17399
<     SOL_COMPUTED SINGLE -1641825.0614 -3664906.5206 4939954.6107 1.1277 1.6321 2.1679 SOL_COMPUTED DOPPLER_VELOCITY -1.3555 -0.3013 -0.7092 0.0287 0.0430 0.0533 "" 0.000 0.000 0.000 29 26 26 25 0 06 35 33
[USB3]
#BESTPOSA,USB3,0,46.0,FINESTEERING,2354,587704.000,02000000,cdba,17399;SOL_COMPUTED,SINGLE,51.07934733545,-114.13171018922,1119.4701,-16.6000,WGS84,1.3308,1.0321,2.3733,"",0.000,0.000,29,27,27,27,00,06,35,33*c8353628
<BESTXYZ USB3 0 46.0 FINESTEERING 2354 587704.000 02000000 44cf 17399
<     SOL_COMPUTED SINGLE -1641826.3730 -3664905.7698 4939953.1288 1.1284 1.6152 2.1417 SOL_COMPUTED DOPPLER_VELOCITY -0.9715 -0.2220 -0.6034 0.0295 0.0433 0.0544 "" 0.000 0.000 0.000 29 27 27 27 0 06 35 33
[USB3]
#BESTPOSA,USB3,0,46.0,FINESTEERING,2354,587705.000,02000000,cdba,17399;SOL_COMPUTED,SINGLE,51.07934112707,-114.13174754668,1116.1438,-16.6000,WGS84,1.3300,1.0477,2.3996,"",0.000,0.000,31,28,28,27,00,06,35,33*08cf7a6c
<BESTXYZ USB3 0 46.0 FINESTEERING 2354 587705.000 02000000 44cf 17399
<     SOL_COMPUTED SINGLE -1641828.1280 -3664903.2827 4939950.1069 1.1301 1.6397 2.1584 SOL_COMPUTED DOPPLER_VELOCITY -1.4585 -0.1164 -0.6866 0.0287 0.0430 0.0533 "" 0.000 0.000 0.000 31 28 28 27 0 06 35 33
[USB3]
#BESTPOSA,USB3,0,47.5,FINESTEERING,2354,587706.000,02000000,cdba,17399;SOL_COMPUTED,SINGLE,51.07933014524,-114.13176198553,1115.9196,-16.6000,WGS84,1.3261,1.0212,2.3657,"",0.000,0.000,33,28,28,28,00,06,35,33*232c4b70
<BESTXYZ USB3 0 47.5 FINESTEERING 2354 587706.000 02000000 44cf 17399
<     SOL_COMPUTED SINGLE -1641829.3826 -3664903.6080 4939949.1648 1.1326 1.5906 2.1413 SOL_COMPUTED DOPPLER_VELOCITY -1.1473 0.1697 -0.3832 0.0290 0.0408 0.0498 "" 0.000 0.000 0.000 33 28 28 28 0 06 35 33
[USB3]
#BESTPOSA,USB3,0,47.5,FINESTEERING,2354,587707.000,02000000,cdba,17399;SOL_COMPUTED,SINGLE,51.07932821040,-114.13179308522,1114.3523,-16.6000,WGS84,1.3320,1.0291,2.3638,"",0.000,0.000,32,27,27,27,00,06,35,33*6f092c67
<BESTXYZ USB3 0 47.5 FINESTEERING 2354 587707.000 02000000 44cf 17399
<     SOL_COMPUTED SINGLE -1641831.0378 -3664901.9710 4939947.8101 1.1337 1.6021 2.1375 SOL_COMPUTED DOPPLER_VELOCITY -1.1664 -0.2451 -0.5217 0.0291 0.0424 0.0500 "" 0.000 0.000 0.000 32 27 27 27 0 06 35 33
[USB3]
#BESTPOSA,USB3,0,50.0,FINESTEERING,2354,587708.000,02000000,cdba,17399;SOL_COMPUTED,SINGLE,51.07931401100,-114.13180125294,1113.8464,-16.6000,WGS84,1.3298,1.0596,2.4200,"",0.000,0.000,32,28,28,27,00,06,35,33*6464ba9d
<BESTXYZ USB3 0 50.0 FINESTEERING 2354 587708.000 02000000 44cf 17399
<     SOL_COMPUTED SINGLE -1641831.9329 -3664902.5687 4939946.4239 1.1916 1.5813 2.1971 SOL_COMPUTED DOPPLER_VELOCITY -1.0042 -0.2402 -0.6859 0.0283 0.0405 0.0506 "" 0.000 0.000 0.000 32 28 28 27 0 06 35 33
[USB3]
#BESTPOSA,USB3,0,53.0,FINESTEERING,2354,587709.000,02000000,cdba,17399;SOL_COMPUTED,SINGLE,51.07930941643,-114.13180994918,1116.1213,-16.6000,WGS84,1.3348,1.1053,2.4905,"",0.000,0.000,31,26,26,25,00,06,35,33*7dd3ad28
<BESTXYZ USB3 0 53.0 FINESTEERING 2354 587709.000 02000000 44cf 17399
<     SOL_COMPUTED SINGLE -1641833.2360 -3664903.9868 4939947.8726 1.1617 1.6896 2.2364 SOL_COMPUTED DOPPLER_VELOCITY -1.0830 -0.2189 -0.9027 0.0296 0.0426 0.0512 "" 0.000 0.000 0.000 31 26 26 25 0 06 35 33
[USB3]
#BESTPOSA,USB3,0,53.0,FINESTEERING,2354,587710.000,02000000,cdba,17399;SOL_COMPUTED,SINGLE,51.07929882281,-114.13182231264,1115.2405,-16.6000,WGS84,1.3205,1.0207,2.3698,"",0.000,0.000,34,28,28,27,00,06,35,33*f6701b2b
<BESTXYZ USB3 0 53.0 FINESTEERING 2354 587710.000 02000000 44cf 17399
<     SOL_COMPUTED SINGLE -1641834.1756 -3664903.9645 4939946.4468 1.1346 1.5861 2.1444 SOL_COMPUTED DOPPLER_VELOCITY -1.1745 -0.2341 -0.8812 0.0290 0.0419 0.0508 "" 0.000 0.000 0.000 34 28 28 27 0 06 35 33
[USB3]
#BESTPOSA,USB3,0,56.0,FINESTEERING,2354,587711.000,02000000,cdba,17399;SOL_COMPUTED,SINGLE,51.07929130268,-114.13182981910,1115.9603,-16.6000,WGS84,1.3334,1.0427,2.3919,"",0.000,0.000,31,27,27,26,00,06,35,33*e5e75a5f
<BESTXYZ USB3 0 56.0 FINESTEERING 2354 587711.000 02000000 44cf 17399
<     SOL_COMPUTED SINGLE -1641835.1068 -3664904.7562 4939946.4812 1.1477 1.5967 2.1725 SOL_COMPUTED DOPPLER_VELOCITY -0.9713 -0.3404 -0.9840 0.0306 0.0423 0.0533 "" 0.000 0.000 0.000 31 27 27 26 0 06 35 33
[USB3]
#BESTPOSA,USB3,0,57.0,FINESTEERING,2354,587712.000,02000000,cdba,17399;SOL_COMPUTED,SINGLE,51.07927748617,-114.13183906159,1115.7321,-16.6000,WGS84,1.3243,1.0218,2.3682,"",0.000,0.000,31,28,28,26,00,06,35,33*dcb04a30
<BESTXYZ USB3 0 57.0 FINESTEERING 2354 587712.000 02000000 44cf 17399
<     SOL_COMPUTED SINGLE -1641836.1283 -3664905.4521 4939945.3378 1.1245 1.5951 2.1442 SOL_COMPUTED DOPPLER_VELOCITY -0.9076 -0.3517 -1.0235 0.0295 0.0431 0.0517 "" 0.000 0.000 0.000 31 28 28 26 0 06 35 33
[USB3]
#BESTPOSA,USB3,0,57.0,FINESTEERING,2354,587713.000,02000000,cdba,17399;SOL_COMPUTED,SINGLE,51.07927757052,-114.13187032535,1114.4659,-16.6000,WGS84,1.3310,1.1013,2.4748,"",0.000,0.000,31,26,26,26,00,06,35,33*cbfadf61
<BESTXYZ USB3 0 57.0 FINESTEERING 2354 587713.000 02000000 44cf 17399
<     SOL_COMPUTED SINGLE -1641837.7999 -3664903.8236 4939944.3585 1.1351 1.7193 2.2056 SOL_COMPUTED DOPPLER_VELOCITY -0.9713 -0.5099 -0.9877 0.0323 0.0458 0.0541 "" 0.000 0.000 0.000 31 26 26 26 0 06 35 33
[USB3]
#BESTPOSA,USB3,0,57.0,FINESTEERING,2354,587714.000,02000000,cdba,17399;SOL_COMPUTED,SINGLE,51.07925946892,-114.13186736231,1115.2248,-16.6000,WGS84,1.3128,1.0207,2.3544,"",0.000,0.000,32,28,28,27,00,06,35,33*177c40bb
<BESTXYZ USB3 0 57.0 FINESTEERING 2354 587714.000 02000000 44cf 17399
<     SOL_COMPUTED SINGLE -1641838.4460 -3664905.7737 4939943.6836 1.1233 1.5954 2.1217 SOL_COMPUTED DOPPLER_VELOCITY -0.8597 -0.4395 -1.0657 0.0291 0.0393 0.0516 "" 0.000 0.000 0.000 32 28 28 27 0 06 35 33
[USB3]
#BESTPOSA,USB3,0,58.5,FINESTEERING,2354,587715.000,02000000,cdba,17399;SOL_COMPUTED,SINGLE,51.07924881848,-114.13187449432,1115.4273,-16.6000,WGS84,1.3223,1.0669,2.4131,"",0.000,0.000,29,27,27,26,00,06,35,33*e6932d0c
<BESTXYZ USB3 0 58.5 FINESTEERING 2354 587715.000 02000000 44cf 17399
<     SOL_COMPUTED SINGLE -1641839.3311 -3664906.5268 4939943.0966 1.1842 1.5957 2.1820 SOL_COMPUTED DOPPLER_VELOCITY -0.8799 -0.4277 -0.9828 0.0301 0.0428 0.0527 "" 0.000 0.000 0.000 29 27 27 26 0 06 35 33
[USB3]
#BESTPOSA,USB3,0,58.5,FINESTEERING,2354,587716.000,02000000,cdba,17399;SOL_COMPUTED,SINGLE,51.07923988214,-114.13188976575,1114.8026,-16.6000,WGS84,1.3447,1.0853,2.4117,"",0.000,0.000,31,27,27,26,00,06,35,33*047d2495
<BESTXYZ USB3 0 58.5 FINESTEERING 2354 587716.000 02000000 44cf 17399
<     SOL_COMPUTED SINGLE -1641840.4638 -3664906.4370 4939941.9859 1.1866 1.6220 2.1826 SOL_COMPUTED DOPPLER_VELOCITY -0.9250 -0.3685 -1.0652 0.0300 0.0417 0.0529 "" 0.000 0.000 0.000 31 27 27 26 0 06 35 33
[USB3]
#BESTPOSA,USB3,0,60.0,FINESTEERING,2354,587717.000,02000000,cdba,17399;SOL_COMPUTED,SINGLE,51.07922112525,-114.13188076760,1115.9720,-16.6000,WGS84,1.3518,1.1679,2.5117,"",0.000,0.000,29,26,26,25,00,06,35,33*6bcaab8a
<BESTXYZ USB3 0 60.0 FINESTEERING 2354 587717.000 02000000 44cf 17399
<     SOL_COMPUTED SINGLE -1641840.8524 -3664908.8472 4939941.5846 1.2020 1.7441 2.2390 SOL_COMPUTED DOPPLER_VELOCITY -0.6820 -0.5286 -0.9294 0.0300 0.0407 0.0529 "" 0.000 0.000 0.000 29 26 26 25 0 06 35 33
[USB3]
#BESTPOSA,USB3,0,60.5,FINESTEERING,2354,587718.000,02000000,cdba,17399;SOL_COMPUTED,SINGLE,51.07921220064,-114.13189052771,1115.8165,-16.6000,WGS84,1.3408,1.1537,2.5078,"",0.000,0.000,29,26,26,25,00,06,35,37*7dce896b
<BESTXYZ USB3 0 60.5 FINESTEERING 2354 587718.000 02000000 44cf 17399
<     SOL_COMPUTED SINGLE -1641841.7527 -3664909.1835 4939940.8397 1.1978 1.7245 2.2381 SOL_COMPUTED DOPPLER_VELOCITY -0.8361 -0.5463 -1.1818 0.0299 0.0417 0.0511 "" 0.000 0.000 0.000 29 26 26 25 0 06 35 37
[USB3]
#BESTPOSA,USB3,0,61.0,FINESTEERING,2354,587719.000,02000000,cdba,17399;SOL_COMPUTED,SINGLE,51.07920377321,-114.13190405564,1115.3898,-16.6000,WGS84,1.3453,1.1630,2.5121,"",0.000,0.000,29,26,26,26,00,06,35,37*a04f84a0
<BESTXYZ USB3 0 61.0 FINESTEERING 2354 587719.000 02000000 44cf 17399
<     SOL_COMPUTED SINGLE -1641842.8066 -3664909.2169 4939939.9186 1.2006 1.7371 2.2392 SOL_COMPUTED DOPPLER_VELOCITY -0.7392 -0.4644 -1.0247 0.0298 0.0417 0.0510 "" 0.000 0.000 0.000 29 26 26 26 0 06 35 37
[USB3]
#BESTPOSA,USB3,0,56.5,FINESTEERING,2354,587720.000,02000000,cdba,17399;SOL_COMPUTED,SINGLE,51.07919591499,-114.13193235049,1112.5253,-16.6000,WGS84,1.3582,1.0870,2.4216,"",0.000,0.000,31,26,26,25,00,06,35,37*8a88967e
<BESTXYZ USB3 0 56.5 FINESTEERING 2354 587720.000 02000000 44cf 17399
<     SOL_COMPUTED SINGLE -1641844.1589 -3664907.3846 4939937.1407 1.1875 1.6216 2.2023 SOL_COMPUTED DOPPLER_VELOCITY -0.5539 -0.5029 -1.0343 0.0298 0.0422 0.0523 "" 0.000 0.000 0.000 31 26 26 25 0 06 35 37
[USB3]
#BESTPOSA,USB3,0,56.5,FINESTEERING,2354,587721.000,02000000,cdba,17399;SOL_COMPUTED,SINGLE,51.07917687738,-114.13191740480,1114.4027,-16.6000,WGS84,1.3812,1.1040,2.4058,"",0.000,0.000,31,26,26,25,00,06,35,33*fa8e2694
<BESTXYZ USB3 0 56.5 FINESTEERING 2354 587721.000 02000000 44cf 17399
<     SOL_COMPUTED SINGLE -1641844.3589 -3664910.3934 4939937.2705 1.1818 1.6331 2.2024 SOL_COMPUTED DOPPLER_VELOCITY -0.7903 -0.5189 -1.2113 0.0298 0.0437 0.0524 "" 0.000 0.000 0.000 31 26 26 25 0 06 35 33
[USB3]
#BESTPOSA,USB3,0,58.5,FINESTEERING,2354,587722.000,02000000,cdba,17399;SOL_COMPUTED,SINGLE,51.07916624250,-114.13191912892,1114.8722,-16.6000,WGS84,1.3660,1.0912,2.4039,"",0.000,0.000,31,26,26,26,00,06,35,33*5e5a2dad
<BESTXYZ USB3 0 58.5 FINESTEERING 2354 587722.000 02000000 44cf 17399
<     SOL_COMPUTED SINGLE -1641844.9662 -3664911.4533 4939936.8923 1.1789 1.6162 2.1986 SOL_COMPUTED DOPPLER_VELOCITY -0.8349 -0.4671 -1.0897 0.0298 0.0410 0.0537 "" 0.000 0.000 0.000 31 26 26 26 0 06 35 33
[USB3]
#BESTPOSA,USB3,0,55.5,FINESTEERING,2354,587723.000,02000000,cdba,17399;SOL_COMPUTED,SINGLE,51.07916767886,-114.13193190000,1116.0238,-16.6000,WGS84,1.2247,1.0754,2.3662,"",0.000,0.000,33,27,27,26,00,06,35,33*31b77220
<BESTXYZ USB3 0 55.5 FINESTEERING 2354 587723.000 02000000 44cf 17399
<     SOL_COMPUTED SINGLE -1641846.0280 -3664911.6341 4939937.8887 1.1124 1.6988 2.0327 SOL_COMPUTED DOPPLER_VELOCITY -0.6547 -0.4497 -0.7044 0.0288 0.0386 0.0512 "" 0.000 0.000 0.000 33 27 27 26 0 06 35 33
[USB3]
#BESTPOSA,USB3,0,55.5,FINESTEERING,2354,587724.000,02000000,cdba,17399;SOL_COMPUTED,SINGLE,51.07915906514,-114.13193684259,1115.9143,-16.6000,WGS84,1.2094,1.0500,2.3535,"",0.000,0.000,33,27,27,26,00,06,35,33*28c19e66
<BESTXYZ USB3 0 55.5 FINESTEERING 2354 587724.000 02000000 44cf 17399
<     SOL_COMPUTED SINGLE -1641846.6209 -3664912.1102 4939937.2014 1.0974 1.6776 2.0213 SOL_COMPUTED DOPPLER_VELOCITY -0.3080 -0.9220 -0.9307 0.0288 0.0404 0.0521 "" 0.000 0.000 0.000 33 27 27 26 0 06 35 33
[USB3]
#BESTPOSA,USB3,0,54.5,FINESTEERING,2354,587725.000,02000000,cdba,17399;SOL_COMPUTED,SINGLE,51.07915015914,-114.13193774033,1115.7005,-16.6000,WGS84,1.2028,1.0468,2.3509,"",0.000,0.000,32,27,27,26,00,06,35,33*29a0e78e
<BESTXYZ USB3 0 54.5 FINESTEERING 2354 587725.000 02000000 44cf 17399
<     SOL_COMPUTED SINGLE -1641846.9386 -3664912.6655 4939936.4125 1.0951 1.6723 2.0183 SOL_COMPUTED DOPPLER_VELOCITY 0.0904 -0.8539 -0.3323 0.0288 0.0392 0.0517 "" 0.000 0.000 0.000 32 27 27 26 0 06 35 33
[USB3]
#BESTPOSA,USB3,0,51.0,FINESTEERING,2354,587726.000,02000000,cdba,17399;SOL_COMPUTED,SINGLE,51.07914567686,-114.13194736226,1113.7602,-16.6000,WGS84,1.2035,1.0030,2.2877,"",0.000,0.000,31,27,27,27,00,06,35,33*29dae39b
<BESTXYZ USB3 0 51.0 FINESTEERING 2354 587726.000 02000000 44cf 17399
<     SOL_COMPUTED SINGLE -1641847.2144 -3664911.6315 4939934.5896 1.0866 1.6156 1.9741 SOL_COMPUTED DOPPLER_VELOCITY 0.5441 -1.2999 -0.6077 0.0291 0.0408 0.0515 "" 0.000 0.000 0.000 31 27 27 27 0 06 35 33
[USB3]
#BESTPOSA,USB3,0,51.0,FINESTEERING,2354,587727.000,02000000,cdba,17399;SOL_COMPUTED,SINGLE,51.07913384896,-114.13193043454,1114.4346,-16.6000,WGS84,1.2138,1.0494,2.3469,"",0.000,0.000,29,25,25,24,00,06,35,33*cc9ac6b4
<BESTXYZ USB3 0 51.0 FINESTEERING 2354 587727.000 02000000 44cf 17399
<     SOL_COMPUTED SINGLE -1641846.7234 -3664913.4376 4939934.2874 1.1503 1.6139 2.0383 SOL_COMPUTED DOPPLER_VELOCITY 0.6978 -1.1420 -0.3129 0.0305 0.0417 0.0541 "" 0.000 0.000 0.000 29 25 25 24 0 06 35 33
[USB3]
#BESTPOSA,USB3,0,52.5,FINESTEERING,2354,587728.000,02000000,cdba,17399;SOL_COMPUTED,SINGLE,51.07912519949,-114.13191969211,1114.3511,-16.6000,WGS84,1.2083,1.0075,2.2975,"",0.000,0.000,30,26,26,25,00,06,35,33*ef521078
<BESTXYZ USB3 0 52.5 FINESTEERING 2354 587728.000 02000000 44cf 17399
<     SOL_COMPUTED SINGLE -1641846.3210 -3664914.3810 4939933.6179 1.0962 1.6094 1.9904 SOL_COMPUTED DOPPLER_VELOCITY 0.5973 -1.0801 -0.2240 0.0296 0.0415 0.0530 "" 0.000 0.000 0.000 30 26 26 25 0 06 35 33
[USB3]
#BESTPOSA,USB3,0,52.0,FINESTEERING,2354,587729.000,02000000,cdba,17399;SOL_COMPUTED,SINGLE,51.07911643073,-114.13190367157,1114.6895,-16.6000,WGS84,1.1971,1.0712,2.3638,"",0.000,0.000,29,26,26,26,00,06,35,33*559f1b3b
<BESTXYZ USB3 0 52.0 FINESTEERING 2354 587729.000 02000000 44cf 17399
<     SOL_COMPUTED SINGLE -1641845.6935 -3664915.7268 4939933.2682 1.1074 1.6986 2.0141 SOL_COMPUTED DOPPLER_VELOCITY 0.3441 -1.2082 -0.4289 0.0296 0.0415 0.0512 "" 0.000 0.000 0.000 29 26 26 26 0 06 35 33
[USB3]
#BESTPOSA,USB3,0,52.0,FINESTEERING,2354,587730.000,02000000,cdba,17399;SOL_COMPUTED,SINGLE,51.07910764450,-114.13189327883,1114.2714,-16.6000,WGS84,1.1986,1.0524,2.3380,"",0.000,0.000,29,26,26,26,00,06,35,33*d23b710c
<BESTXYZ USB3 0 52.0 FINESTEERING 2354 587730.000 02000000 44cf 17399
<     SOL_COMPUTED SINGLE -1641845.2323 -3664916.4790 4939932.3286 1.1522 1.6220 2.0130 SOL_COMPUTED DOPPLER_VELOCITY 0.6086 -1.1003 -0.3745 0.0326 0.0467 0.0530 "" 0.000 0.000 0.000 29 26 26 26 0 06 35 33
[USB3]
#BESTPOSA,USB3,0,57.5,FINESTEERING,2354,587731.000,02000000,cdba,17399;SOL_COMPUTED,SINGLE,51.07909951852,-114.13187793585,1114.5016,-16.6000,WGS84,1.2025,1.1159,2.4049,"",0.000,0.000,28,25,25,25,00,06,35,33*fca1e702
<BESTXYZ USB3 0 57.5 FINESTEERING 2354 587731.000 02000000 44cf 17399
<     SOL_COMPUTED SINGLE -1641844.5976 -3664917.6926 4939931.9397 1.1690 1.7075 2.0475 SOL_COMPUTED DOPPLER_VELOCITY 0.3363 -1.0792 -0.2771 0.0321 0.0443 0.0531 "" 0.000 0.000 0.000 28 25 25 25 0 06 35 33
[USB3]
#BESTPOSA,USB3,0,62.5,FINESTEERING,2354,587732.000,02000000,cdba,17399;SOL_COMPUTED,SINGLE,51.07909133109,-114.13187012163,1114.0348,-16.6000,WGS84,1.2006,1.0465,2.3298,"",0.000,0.000,29,26,26,25,00,06,35,33*f7c9245a
<BESTXYZ USB3 0 62.5 FINESTEERING 2354 587732.000 02000000 44cf 17399
<     SOL_COMPUTED SINGLE -1641844.2677 -3664918.2958 4939931.0042 1.1582 1.6130 2.0052 SOL_COMPUTED DOPPLER_VELOCITY 0.4516 -1.1696 -0.4665 0.0319 0.0418 0.0539 "" 0.000 0.000 0.000 29 26 26 25 0 06 35 33
[USB3]
#BESTPOSA,USB3,0,60.0,FINESTEERING,2354,587733.000,02000000,cdba,17399;SOL_COMPUTED,SINGLE,51.07907951713,-114.13185700888,1114.8583,-16.6000,WGS84,1.2497,1.1404,2.5070,"",0.000,0.000,28,24,24,24,00,06,35,33*abe5986e
<BESTXYZ USB3 0 60.0 FINESTEERING 2354 587733.000 02000000 44cf 17399
<     SOL_COMPUTED SINGLE -1641844.0585 -3664920.0770 4939930.8190 1.2688 1.7994 2.0735 SOL_COMPUTED DOPPLER_VELOCITY 0.3509 -1.2085 -0.7795 0.0344 0.0449 0.0528 "" 0.000 0.000 0.000 28 24 24 24 0 06 35 33
[USB3]
#BESTPOSA,USB3,0,59.0,FINESTEERING,2354,587734.000,02000000,cdba,17399;SOL_COMPUTED,SINGLE,51.07907579650,-114.13184723525,1113.5465,-16.6000,WGS84,1.2016,1.0558,2.3413,"",0.000,0.000,31,26,26,26,00,06,35,33*2e8c32e8
<BESTXYZ USB3 0 59.0 FINESTEERING 2354 587734.000 02000000 44cf 17399
<     SOL_COMPUTED SINGLE -1641843.2281 -3664919.8989 4939929.5383 1.1686 1.6253 2.0083 SOL_COMPUTED DOPPLER_VELOCITY 0.1416 -1.2378 -0.6215 0.0312 0.0412 0.0493 "" 0.000 0.000 0.000 31 26 26 26 0 06 35 33
[USB3]
#BESTPOSA,USB3,0,59.0,FINESTEERING,2354,587735.000,02000000,cdba,17399;SOL_COMPUTED,SINGLE,51.07906034186,-114.13183558033,1115.0211,-16.6000,WGS84,1.2241,1.1787,2.4082,"",0.000,0.000,29,25,25,24,00,06,35,37*ed6592f5
<BESTXYZ USB3 0 59.0 FINESTEERING 2354 587735.000 02000000 44cf 17399
<     SOL_COMPUTED SINGLE -1641843.4084 -3664922.2993 4939929.6053 1.2395 1.7133 2.0532 SOL_COMPUTED DOPPLER_VELOCITY 0.1520 -1.0254 -0.5252 0.0357 0.0449 0.0512 "" 0.000 0.000 0.000 29 25 25 24 0 06 35 37
[USB3]
#BESTPOSA,USB3,0,62.5,FINESTEERING,2354,587736.000,02000000,cdba,17399;SOL_COMPUTED,SINGLE,51.07905208345,-114.13182244724,1114.1553,-16.6000,WGS84,1.5785,1.4321,3.2721,"",0.000,0.000,27,23,23,23,00,06,35,33*76f10dfd
<BESTXYZ USB3 0 62.5 FINESTEERING 2354 587736.000 02000000 44cf 17399
<     SOL_COMPUTED SINGLE -1641842.6382 -3664922.8317 4939928.3544 2.1406 2.2951 2.3236 SOL_COMPUTED DOPPLER_VELOCITY 0.1973 -1.0585 -0.6708 0.0416 0.0494 0.0515 "" 0.000 0.000 0.000 27 23 23 23 0 06 35 33
[USB3]
#BESTPOSA,USB3,0,67.0,FINESTEERING,2354,587737.000,02000000,cdba,17399;SOL_COMPUTED,SINGLE,51.07904311641,-114.13182220743,1114.1676,-16.6000,WGS84,1.5831,1.4481,3.2812,"",0.000,0.000,29,23,23,22,00,06,35,33*b3e9c4ca
<BESTXYZ USB3 0 67.0 FINESTEERING 2354 587737.000 02000000 44cf 17399
<     SOL_COMPUTED SINGLE -1641842.9434 -3664923.5540 4939927.7371 2.1612 2.3011 2.3246 SOL_COMPUTED DOPPLER_VELOCITY 0.2536 -1.2610 -0.7265 0.0436 0.0513 0.0506 "" 0.000 0.000 0.000 29 23 23 22 0 06 35 33
[USB3]
#BESTPOSA,USB3,0,63.0,FINESTEERING,2354,587738.000,02000000,cdba,17399;SOL_COMPUTED,SINGLE,51.07902682086,-114.13181194983,1115.9830,-16.6000,WGS84,1.9666,2.0197,4.1469,"",0.000,0.000,26,21,21,20,00,06,35,37*763a5c67
<BESTXYZ USB3 0 63.0 FINESTEERING 2354 587738.000 02000000 44cf 17399
<     SOL_COMPUTED SINGLE -1641843.3303 -3664926.1762 4939928.0104 3.1532 2.8700 2.6389 SOL_COMPUTED DOPPLER_VELOCITY 0.6247 -0.7401 -0.4414 0.0497 0.0549 0.0528 "" 0.000 0.000 0.000 26 21 21 20 0 06 35 37
[USB3]
#RXSTATUSEVENTA,USB3,0,43.0,FINESTEERING,2354,587738.015,02000800,b967,17399;AUX4,0,SET,"<60% available SVs tracked well"*428ddac4
#BESTPOSA,USB3,0,55.5,FINESTEERING,2354,587739.000,02000000,cdba,17399;SOL_COMPUTED,SINGLE,51.07901257384,-114.13181862724,1117.8337,-16.6000,WGS84,1.9594,1.8760,3.8719,"",0.000,0.000,28,21,21,21,00,06,35,33*0dd12241
<BESTXYZ USB3 0 55.5 FINESTEERING 2354 587739.000 02000000 44cf 17399
<     SOL_COMPUTED SINGLE -1641844.7370 -3664928.1716 4939928.4544 2.9274 2.7674 2.4743 SOL_COMPUTED DOPPLER_VELOCITY 0.3592 -1.1099 -0.5471 0.0478 0.0528 0.0524 "" 0.000 0.000 0.000 28 21 21 21 0 06 35 33
[USB3]
#BESTPOSA,USB3,0,55.5,FINESTEERING,2354,587740.000,02000800,cdba,17399;SOL_COMPUTED,SINGLE,51.07900263624,-114.13180257926,1117.9895,-16.6000,WGS84,1.9614,1.8518,3.8506,"",0.000,0.000,28,22,22,20,00,06,35,33*d11959de
<BESTXYZ USB3 0 55.5 FINESTEERING 2354 587740.000 02000800 44cf 17399
<     SOL_COMPUTED SINGLE -1641844.1022 -3664929.5058 4939927.8808 2.8985 2.7654 2.4607 SOL_COMPUTED DOPPLER_VELOCITY 0.4369 -0.8057 -0.4947 0.0465 0.0516 0.0497 "" 0.000 0.000 0.000 28 22 22 20 0 06 35 33
[USB3]
#BESTPOSA,USB3,0,62.5,FINESTEERING,2354,587741.000,02000800,cdba,17399;SOL_COMPUTED,SINGLE,51.07899171443,-114.13179733548,1118.0068,-16.6000,WGS84,1.9194,1.7456,3.7799,"",0.000,0.000,27,22,22,21,00,06,35,33*4acc8e45
<BESTXYZ USB3 0 62.5 FINESTEERING 2354 587741.000 02000800 44cf 17399
<     SOL_COMPUTED SINGLE -1641844.1578 -3664930.5289 4939927.1308 2.7635 2.7322 2.4325 SOL_COMPUTED DOPPLER_VELOCITY 0.1151 -0.9598 -0.9301 0.0525 0.0572 0.0503 "" 0.000 0.000 0.000 27 22 22 21 0 06 35 33
[USB3]
#RXSTATUSEVENTA,USB3,0,55.5,FINESTEERING,2354,587741.018,02000800,b967,17399;AUX4,0,SET,"<60% available SVs tracked well"*e905085b
#BESTPOSA,USB3,0,63.5,FINESTEERING,2354,587742.000,02000000,cdba,17399;SOL_COMPUTED,SINGLE,51.07898463872,-114.13178758679,1117.5513,-16.6000,WGS84,1.9850,1.8112,3.7964,"",0.000,0.000,26,21,21,20,00,06,35,33*69e40f0b
<BESTXYZ USB3 0 63.5 FINESTEERING 2354 587742.000 02000000 44cf 17399
<     SOL_COMPUTED SINGLE -1641843.6676 -3664931.1060 4939926.2818 2.8551 2.7674 2.4131 SOL_COMPUTED DOPPLER_VELOCITY 0.0824 -0.8771 -0.8271 0.0511 0.0542 0.0499 "" 0.000 0.000 0.000 26 21 21 20 0 06 35 33
[USB3]
#BESTPOSA,USB3,0,64.0,FINESTEERING,2354,587743.000,02000800,cdba,17399;SOL_COMPUTED,SINGLE,51.07896819550,-114.13179444075,1118.1136,-16.6000,WGS84,1.9234,1.6703,3.7468,"",0.000,0.000,27,22,22,22,00,06,35,37*1d339a3b
<BESTXYZ USB3 0 64.0 FINESTEERING 2354 587743.000 02000800 44cf 17399
<     SOL_COMPUTED SINGLE -1641844.8325 -3664932.5311 4939925.5698 2.6949 2.7361 2.4041 SOL_COMPUTED DOPPLER_VELOCITY -0.1118 -0.8736 -0.9601 0.0532 0.0573 0.0514 "" 0.000 0.000 0.000 27 22 22 22 0 06 35 37
[USB3]
#BESTPOSA,USB3,0,62.5,FINESTEERING,2354,587744.000,02000800,cdba,17399;SOL_COMPUTED,SINGLE,51.07896365808,-114.13176793453,1117.2866,-16.6000,WGS84,1.9316,1.6877,3.7511,"",0.000,0.000,27,22,22,22,00,06,35,33*3e44a561
<BESTXYZ USB3 0 62.5 FINESTEERING 2354 587744.000 02000800 44cf 17399
<     SOL_COMPUTED SINGLE -1641843.0852 -3664933.1750 4939924.6092 2.7137 2.7390 2.4049 SOL_COMPUTED DOPPLER_VELOCITY 0.0391 -0.9561 -0.9216 0.0490 0.0542 0.0489 "" 0.000 0.000 0.000 27 22 22 22 0 06 35 33
[USB3]
#BESTPOSA,USB3,0,62.5,FINESTEERING,2354,587745.000,02000000,cdba,17399;SOL_COMPUTED,SINGLE,51.07895867578,-114.13174628252,1116.2241,-16.6000,WGS84,1.8817,1.6141,3.7036,"",0.000,0.000,28,23,23,23,00,06,35,33*6ddd95bd
<BESTXYZ USB3 0 62.5 FINESTEERING 2354 587745.000 02000000 44cf 17399
<     SOL_COMPUTED SINGLE -1641841.6036 -3664933.5799 4939923.4343 2.6086 2.7019 2.3994 SOL_COMPUTED DOPPLER_VELOCITY 0.0137 -0.8422 -0.6202 0.0503 0.0537 0.0503 "" 0.000 0.000 0.000 28 23 23 23 0 06 35 33
[USB3]
#BESTPOSA,USB3,0,65.0,FINESTEERING,2354,587746.000,02000000,cdba,17399;SOL_COMPUTED,SINGLE,51.07895739906,-114.13172066384,1114.7965,-16.6000,WGS84,1.8504,1.5468,3.6773,"",0.000,0.000,28,23,23,23,00,06,35,33*d2bcc3c7
<BESTXYZ USB3 0 65.0 FINESTEERING 2354 587746.000 02000000 44cf 17399
<     SOL_COMPUTED SINGLE -1641839.6434 -3664933.5963 4939922.2344 2.5330 2.6840 2.3914 SOL_COMPUTED DOPPLER_VELOCITY -0.0388 -1.0055 -0.7650 0.0488 0.0544 0.0497 "" 0.000 0.000 0.000 28 23 23 23 0 06 35 33
[USB3]
#BESTPOSA,USB3,0,65.0,FINESTEERING,2354,587747.000,02000000,cdba,17399;SOL_COMPUTED,SINGLE,51.07895152694,-114.13170416766,1114.3164,-16.6000,WGS84,1.8472,1.5412,3.6741,"",0.000,0.000,28,23,23,23,00,06,35,33*9e14f13e
<BESTXYZ USB3 0 65.0 FINESTEERING 2354 587747.000 02000000 44cf 17399
<     SOL_COMPUTED SINGLE -1641838.6728 -3664934.2577 4939921.4504 2.5263 2.6809 2.3909 SOL_COMPUTED DOPPLER_VELOCITY 0.0611 -1.1779 -0.7130 0.0483 0.0544 0.0494 "" 0.000 0.000 0.000 28 23 23 23 0 06 35 33
[USB3]
#BESTPOSA,USB3,0,60.5,FINESTEERING,2354,587748.000,02000000,cdba,17399;SOL_COMPUTED,SINGLE,51.07893738252,-114.13170375640,1114.9896,-16.6000,WGS84,1.8367,1.5334,3.6507,"",0.000,0.000,29,23,23,23,00,06,35,33*756cdee8
<BESTXYZ USB3 0 60.5 FINESTEERING 2354 587748.000 02000000 44cf 17399
<     SOL_COMPUTED SINGLE -1641839.3200 -3664935.7729 4939920.9854 2.5081 2.6624 2.3821 SOL_COMPUTED DOPPLER_VELOCITY 0.3222 -1.1999 -0.7433 0.0436 0.0516 0.0483 "" 0.000 0.000 0.000 29 23 23 23 0 06 35 33
[USB3]
#BESTPOSA,USB3,0,56.0,FINESTEERING,2354,587749.000,02000000,cdba,17399;SOL_COMPUTED,SINGLE,51.07892681731,-114.13169701057,1115.1767,-16.6000,WGS84,1.8289,1.5262,3.6293,"",0.000,0.000,30,24,24,24,00,06,35,33*3c244c91
<BESTXYZ USB3 0 56.0 FINESTEERING 2354 587749.000 02000000 44cf 17399
<     SOL_COMPUTED SINGLE -1641839.3105 -3664936.9082 4939920.3924 2.4915 2.6456 2.3748 SOL_COMPUTED DOPPLER_VELOCITY 0.4203 -1.0754 -0.7118 0.0380 0.0467 0.0490 "" 0.000 0.000 0.000 30 24 24 24 0 06 35 33
[USB3]
#BESTPOSA,USB3,0,53.5,FINESTEERING,2354,587750.000,02000000,cdba,17399;SOL_COMPUTED,SINGLE,51.07891863965,-114.13168467572,1114.5309,-16.6000,WGS84,1.5326,1.2295,3.0001,"",0.000,0.000,31,25,25,25,00,06,35,33*16cc1f03
<BESTXYZ USB3 0 53.5 FINESTEERING 2354 587750.000 02000000 44cf 17399
<     SOL_COMPUTED SINGLE -1641838.6450 -3664937.5374 4939919.3183 1.8496 2.1705 2.1747 SOL_COMPUTED DOPPLER_VELOCITY 0.2294 -0.9982 -0.7611 0.0367 0.0464 0.0499 "" 0.000 0.000 0.000 31 25 25 25 0 06 35 33
[USB3]
#BESTPOSA,USB3,0,53.5,FINESTEERING,2354,587751.000,02000000,cdba,17399;SOL_COMPUTED,SINGLE,51.07890807278,-114.13167287173,1114.8375,-16.6000,WGS84,1.5451,1.2504,3.0431,"",0.000,0.000,31,25,25,25,00,06,35,37*375977e1
<BESTXYZ USB3 0 53.5 FINESTEERING 2354 587751.000 02000000 44cf 17399
<     SOL_COMPUTED SINGLE -1641838.3427 -3664938.8863 4939918.8181 1.8593 2.1600 2.2557 SOL_COMPUTED DOPPLER_VELOCITY 0.2530 -1.0849 -0.5454 0.0362 0.0453 0.0482 "" 0.000 0.000 0.000 31 25 25 25 0 06 35 37
[USB3]
#BESTPOSA,USB3,0,52.5,FINESTEERING,2354,587752.000,02000000,cdba,17399;SOL_COMPUTED,SINGLE,51.07890271547,-114.13166789272,1115.8956,-16.6000,WGS84,1.5175,1.2146,2.9700,"",0.000,0.000,32,26,26,26,00,06,35,33*a7fb7cf6
<BESTXYZ USB3 0 52.5 FINESTEERING 2354 587752.000 02000000 44cf 17399
<     SOL_COMPUTED SINGLE -1641838.4856 -3664940.0589 4939919.2668 1.8112 2.1429 2.1740 SOL_COMPUTED DOPPLER_VELOCITY 0.2398 -1.1433 -0.7019 0.0332 0.0447 0.0479 "" 0.000 0.000 0.000 32 26 26 26 0 06 35 33
[USB3]
#BESTPOSA,USB3,0,52.5,FINESTEERING,2354,587753.000,02000000,cdba,17399;SOL_COMPUTED,SINGLE,51.07888721120,-114.13164757224,1114.4259,-16.6000,WGS84,1.4089,1.1252,2.7695,"",0.000,0.000,32,26,26,26,00,06,35,33*653fcd4f
<BESTXYZ USB3 0 52.5 FINESTEERING 2354 587753.000 02000000 44cf 17399
<     SOL_COMPUTED SINGLE -1641837.3570 -3664941.0234 4939917.0396 1.5945 1.9838 2.1079 SOL_COMPUTED DOPPLER_VELOCITY 0.2524 -1.1953 -0.6834 0.0332 0.0435 0.0473 "" 0.000 0.000 0.000 32 26 26 26 0 06 35 33
[USB3]
#BESTPOSA,USB3,0,51.0,FINESTEERING,2354,587754.000,02000000,cdba,17399;SOL_COMPUTED,SINGLE,51.07887835121,-114.13163606246,1114.4966,-16.6000,WGS84,1.4031,1.1192,2.7546,"",0.000,0.000,33,27,27,27,00,06,35,33*47076073
<BESTXYZ USB3 0 51.0 FINESTEERING 2354 587754.000 02000000 44cf 17399
<     SOL_COMPUTED SINGLE -1641836.9525 -3664942.0937 4939916.4752 1.5783 1.9722 2.1045 SOL_COMPUTED DOPPLER_VELOCITY 0.3535 -1.0375 -0.6582 0.0307 0.0403 0.0474 "" 0.000 0.000 0.000 33 27 27 27 0 06 35 33
[USB3]
#BESTPOSA,USB3,0,50.5,FINESTEERING,2354,587755.000,02000000,cdba,17399;SOL_COMPUTED,SINGLE,51.07887146031,-114.13162283988,1114.4814,-16.6000,WGS84,1.2934,1.0647,2.5011,"",0.000,0.000,34,28,28,27,00,06,35,33*ab9015f5
<BESTXYZ USB3 0 50.5 FINESTEERING 2354 587755.000 02000000 44cf 17399
<     SOL_COMPUTED SINGLE -1641836.3467 -3664943.0083 4939915.9817 1.3742 1.7531 2.0249 SOL_COMPUTED DOPPLER_VELOCITY 0.4593 -1.1109 -0.4692 0.0293 0.0392 0.0459 "" 0.000 0.000 0.000 34 28 28 27 0 06 35 33
[USB3]
#BESTPOSA,USB3,0,50.5,FINESTEERING,2354,587756.000,02000000,cdba,17399;SOL_COMPUTED,SINGLE,51.07886102358,-114.13161490799,1115.5013,-16.6000,WGS84,1.2912,1.0583,2.4604,"",0.000,0.000,34,28,28,27,00,06,35,37*7655ca4f
<BESTXYZ USB3 0 50.5 FINESTEERING 2354 587756.000 02000000 44cf 17399
<     SOL_COMPUTED SINGLE -1641836.4707 -3664944.6449 4939916.0456 1.2981 1.6784 2.0830 SOL_COMPUTED DOPPLER_VELOCITY 0.5922 -1.1847 -0.3386 0.0295 0.0391 0.0470 "" 0.000 0.000 0.000 34 28 28 27 0 06 35 37
[USB3]
#BESTPOSA,USB3,0,51.0,FINESTEERING,2354,587757.000,02000000,cdba,17399;SOL_COMPUTED,SINGLE,51.07885455047,-114.13159924212,1114.9325,-16.6000,WGS84,1.2921,1.0535,2.4524,"",0.000,0.000,32,28,28,27,00,06,35,37*b527ac33
<BESTXYZ USB3 0 51.0 FINESTEERING 2354 587757.000 02000000 44cf 17399
<     SOL_COMPUTED SINGLE -1641835.5516 -3664945.2791 4939915.1506 1.2840 1.6700 2.0871 SOL_COMPUTED DOPPLER_VELOCITY 0.4409 -1.2628 -0.3973 0.0314 0.0429 0.0512 "" 0.000 0.000 0.000 32 28 28 27 0 06 35 37
[USB3]
#BESTPOSA,USB3,0,51.5,FINESTEERING,2354,587758.000,02000000,cdba,17399;SOL_COMPUTED,SINGLE,51.07884425316,-114.13158730257,1115.1200,-16.6000,WGS84,1.3142,1.0748,2.5068,"",0.000,0.000,31,27,27,27,00,06,35,37*5a811af6
<BESTXYZ USB3 0 51.5 FINESTEERING 2354 587758.000 02000000 44cf 17399
<     SOL_COMPUTED SINGLE -1641835.2005 -3664946.5423 4939914.5766 1.3521 1.7146 2.0972 SOL_COMPUTED DOPPLER_VELOCITY 0.4621 -1.2343 -0.4745 0.0339 0.0441 0.0490 "" 0.000 0.000 0.000 31 27 27 27 0 06 35 37
[USB3]
#BESTPOSA,USB3,0,54.0,FINESTEERING,2354,587759.000,02000000,cdba,17399;SOL_COMPUTED,SINGLE,51.07883628998,-114.13157309104,1114.9415,-16.6000,WGS84,1.3173,1.0912,2.5236,"",0.000,0.000,30,27,27,27,00,06,35,37*86340a12
<BESTXYZ USB3 0 54.0 FINESTEERING 2354 587759.000 02000000 44cf 17399
<     SOL_COMPUTED SINGLE -1641834.5274 -3664947.4762 4939913.8811 1.3820 1.7219 2.1023 SOL_COMPUTED DOPPLER_VELOCITY 0.6777 -1.0394 -0.3256 0.0319 0.0429 0.0476 "" 0.000 0.000 0.000 30 27 27 27 0 06 35 37
[USB3]
#BESTPOSA,USB3,0,55.0,FINESTEERING,2354,587760.000,02000000,cdba,17399;SOL_COMPUTED,SINGLE,51.07883235348,-114.13156223584,1115.3122,-16.6000,WGS84,1.4238,1.1346,2.7954,"",0.000,0.000,30,26,26,26,00,06,35,33*c84514da
<BESTXYZ USB3 0 55.0 FINESTEERING 2354 587760.000 02000000 44cf 17399
<     SOL_COMPUTED SINGLE -1641834.0676 -3664948.3109 4939913.8944 1.6019 1.9817 2.1530 SOL_COMPUTED DOPPLER_VELOCITY 0.6207 -1.0731 -0.2571 0.0350 0.0467 0.0483 "" 0.000 0.000 0.000 30 26 26 26 0 06 35 33
[USB3]
#BESTPOSA,USB3,0,55.0,FINESTEERING,2354,587761.000,02000000,cdba,17399;SOL_COMPUTED,SINGLE,51.07882272581,-114.13154730613,1115.2130,-16.6000,WGS84,1.3078,1.0746,2.5129,"",0.000,0.000,31,27,27,26,00,06,35,33*334a7007
<BESTXYZ USB3 0 55.0 FINESTEERING 2354 587761.000 02000000 44cf 17399
<     SOL_COMPUTED SINGLE -1641833.4279 -3664949.4424 4939913.1441 1.3774 1.7427 2.0605 SOL_COMPUTED DOPPLER_VELOCITY 0.6265 -1.1333 -0.4199 0.0324 0.0437 0.0491 "" 0.000 0.000 0.000 31 27 27 26 0 06 35 33
[USB3]
#BESTPOSA,USB3,0,55.0,FINESTEERING,2354,587762.000,02000000,cdba,17399;SOL_COMPUTED,SINGLE,51.07881605965,-114.13153461564,1115.5329,-16.6000,WGS84,1.3356,1.0759,2.5368,"",0.000,0.000,31,27,27,26,00,06,35,33*0a5ededb
<BESTXYZ USB3 0 55.0 FINESTEERING 2354 587762.000 02000000 44cf 17399
<     SOL_COMPUTED SINGLE -1641832.9342 -3664950.5161 4939912.9270 1.3886 1.7547 2.0904 SOL_COMPUTED DOPPLER_VELOCITY 0.6420 -1.1053 -0.3736 0.0360 0.0466 0.0517 "" 0.000 0.000 0.000 31 27 27 26 0 06 35 33
[USB3]
#BESTPOSA,USB3,0,55.0,FINESTEERING,2354,587763.000,02000000,cdba,17399;SOL_COMPUTED,SINGLE,51.07880640210,-114.13152255811,1115.1929,-16.6000,WGS84,1.4155,1.1186,2.7697,"",0.000,0.000,28,26,26,26,00,06,35,33*7e4c9562
<BESTXYZ USB3 0 55.0 FINESTEERING 2354 587763.000 02000000 44cf 17399
<     SOL_COMPUTED SINGLE -1641832.4175 -3664951.4297 4939911.9874 1.5869 1.9810 2.1174 SOL_COMPUTED DOPPLER_VELOCITY 0.7315 -0.9842 -0.4976 0.0378 0.0476 0.0621 "" 0.000 0.000 0.000 28 26 26 26 0 06 35 33
[USB3]
#BESTPOSA,USB3,0,59.0,FINESTEERING,2354,587764.000,02000000,cdba,17399;SOL_COMPUTED,SINGLE,51.07879516123,-114.13151870788,1116.5989,-16.6000,WGS84,1.4416,1.1505,2.8331,"",0.000,0.000,30,26,26,26,00,06,35,37*f3c9b52f
<BESTXYZ USB3 0 59.0 FINESTEERING 2354 587764.000 02000000 44cf 17399
<     SOL_COMPUTED SINGLE -1641832.9301 -3664953.2342 4939912.2955 1.6240 1.9891 2.1988 SOL_COMPUTED DOPPLER_VELOCITY 0.6917 -0.6755 -0.6340 0.0409 0.0516 0.0519 "" 0.000 0.000 0.000 30 26 26 26 0 06 35 37
[USB3]
#BESTPOSA,USB3,0,51.5,FINESTEERING,2354,587765.000,02000000,cdba,17399;SOL_COMPUTED,SINGLE,51.07878904723,-114.13150229734,1116.4691,-16.6000,WGS84,1.4382,1.0657,2.6716,"",0.000,0.000,32,28,28,27,00,06,35,37*8669894d
<BESTXYZ USB3 0 51.5 FINESTEERING 2354 587765.000 02000000 44cf 17399
<     SOL_COMPUTED SINGLE -1641832.0635 -3664954.1130 4939911.7671 1.4810 1.9430 2.0912 SOL_COMPUTED DOPPLER_VELOCITY 0.8661 -0.6857 -0.5379 0.0383 0.0520 0.0572 "" 0.000 0.000 0.000 32 28 28 27 0 06 35 37
[USB3]
#BESTPOSA,USB3,0,51.5,FINESTEERING,2354,587766.000,02000000,cdba,17399;SOL_COMPUTED,SINGLE,51.07878975992,-114.13147533350,1114.3656,-16.6000,WGS84,1.4886,1.1009,2.7465,"",0.000,0.000,31,27,27,27,00,06,35,33*1ef49d51
<BESTXYZ USB3 0 51.5 FINESTEERING 2354 587766.000 02000000 44cf 17399
<     SOL_COMPUTED SINGLE -1641829.7732 -3664953.6234 4939910.1804 1.5184 1.9549 2.2008 SOL_COMPUTED DOPPLER_VELOCITY 0.6368 -0.8144 -0.7316 0.0344 0.0485 0.0527 "" 0.000 0.000 0.000 31 27 27 27 0 06 35 33
[USB3]
#BESTPOSA,USB3,0,53.0,FINESTEERING,2354,587767.000,02000000,cdba,17399;SOL_COMPUTED,SINGLE,51.07877856598,-114.13147540624,1115.4768,-16.6000,WGS84,1.4739,1.0965,2.7217,"",0.000,0.000,31,28,28,27,00,06,35,33*755bbf35
<BESTXYZ USB3 0 53.0 FINESTEERING 2354 587767.000 02000000 44cf 17399
<     SOL_COMPUTED SINGLE -1641830.4594 -3664955.1427 4939910.2623 1.5807 2.0114 2.0585 SOL_COMPUTED DOPPLER_VELOCITY 0.8004 -0.7573 -0.6000 0.0381 0.0474 0.0512 "" 0.000 0.000 0.000 31 28 28 27 0 06 35 33
[USB3]
#BESTPOSA,USB3,0,52.0,FINESTEERING,2354,587768.000,02000000,cdba,17399;SOL_COMPUTED,SINGLE,51.07877122667,-114.13145301091,1114.1578,-16.6000,WGS84,1.5754,1.2037,2.9608,"",0.000,0.000,29,26,26,26,00,06,35,37*f140b44c
<BESTXYZ USB3 0 52.0 FINESTEERING 2354 587768.000 02000000 44cf 17399
<     SOL_COMPUTED SINGLE -1641828.9479 -3664955.6081 4939908.7231 1.8095 2.1642 2.1769 SOL_COMPUTED DOPPLER_VELOCITY 1.1500 -0.7146 -0.4652 0.0419 0.0517 0.0572 "" 0.000 0.000 0.000 29 26 26 26 0 06 35 37
[USB3]
#BESTPOSA,USB3,0,52.0,FINESTEERING,2354,587769.000,02000000,cdba,17399;SOL_COMPUTED,SINGLE,51.07876715305,-114.13143179181,1114.0893,-16.6000,WGS84,1.6932,1.2421,3.0620,"",0.000,0.000,30,26,26,25,00,06,35,33*d23ae5ca
<BESTXYZ USB3 0 52.0 FINESTEERING 2354 587769.000 02000000 44cf 17399
<     SOL_COMPUTED SINGLE -1641827.7172 -3664956.4987 4939908.3850 1.9657 2.3322 2.1172 SOL_COMPUTED DOPPLER_VELOCITY 0.8622 -0.5406 -0.3709 0.0391 0.0493 0.0541 "" 0.000 0.000 0.000 30 26 26 25 0 06 35 33
[USB3]
#BESTPOSA,USB3,0,48.5,FINESTEERING,2354,587770.000,02000000,cdba,17399;SOL_COMPUTED,SINGLE,51.07875703687,-114.13142169912,1116.2186,-16.6000,WGS84,1.5640,1.1244,2.8090,"",0.000,0.000,29,25,25,24,00,06,35,33*3917ac46
<BESTXYZ USB3 0 48.5 FINESTEERING 2354 587770.000 02000000 44cf 17399
<     SOL_COMPUTED SINGLE -1641827.9765 -3664958.8079 4939909.3345 1.6850 2.1271 2.0583 SOL_COMPUTED DOPPLER_VELOCITY 1.1169 -0.7154 -0.1539 0.0407 0.0500 0.0573 "" 0.000 0.000 0.000 29 25 25 24 0 06 35 33
[USB3]
#BESTPOSA,USB3,0,48.5,FINESTEERING,2354,587771.000,02000000,cdba,17399;SOL_COMPUTED,SINGLE,51.07877243756,-114.13139737072,1115.5522,-16.6000,WGS84,1.7069,1.2765,3.1354,"",0.000,0.000,28,25,25,25,00,06,35,37*ebcbae4c
<BESTXYZ USB3 0 48.5 FINESTEERING 2354 587771.000 02000000 44cf 17399
<     SOL_COMPUTED SINGLE -1641825.7041 -3664957.9063 4939909.8926 2.0038 2.3401 2.2096 SOL_COMPUTED DOPPLER_VELOCITY 1.0928 -0.6126 -0.2352 0.0415 0.0522 0.0545 "" 0.000 0.000 0.000 28 25 25 25 0 06 35 37
[USB3]
#BESTPOSA,USB3,0,50.5,FINESTEERING,2354,587772.000,02000000,cdba,17399;SOL_COMPUTED,SINGLE,51.07876606179,-114.13137876473,1114.7612,-16.6000,WGS84,1.8000,1.3249,3.1927,"",0.000,0.000,27,23,23,22,00,06,35,37*58880b4a
<BESTXYZ USB3 0 50.5 FINESTEERING 2354 587772.000 02000000 44cf 17399
<     SOL_COMPUTED SINGLE -1641824.5365 -3664958.4896 4939908.8316 2.0596 2.3479 2.3311 SOL_COMPUTED DOPPLER_VELOCITY 1.2448 -0.6444 -0.0550 0.0405 0.0506 0.0505 "" 0.000 0.000 0.000 27 23 23 22 0 06 35 37
[USB3]
#BESTPOSA,USB3,0,50.5,FINESTEERING,2354,587773.000,02000000,cdba,17399;SOL_COMPUTED,SINGLE,51.07876607388,-114.13140613235,1123.5577,-16.6000,WGS84,1.5940,1.0817,2.5871,"",0.000,0.000,28,25,25,24,00,06,35,33*2a27b2d1
<BESTXYZ USB3 0 50.5 FINESTEERING 2354 587773.000 02000000 44cf 17399
<     SOL_COMPUTED SINGLE -1641828.5460 -3664962.7479 4939915.6761 1.4960 1.9865 2.0542 SOL_COMPUTED DOPPLER_VELOCITY 1.1691 -0.5889 0.1434 0.0378 0.0491 0.0551 "" 0.000 0.000 0.000 28 25 25 24 0 06 35 33
[USB3]
#RXSTATUSEVENTA,USB3,0,48.5,FINESTEERING,2354,587773.016,02000800,b967,17399;AUX4,0,SET,"<60% available SVs tracked well"*aab01185
#BESTPOSA,USB3,0,52.0,FINESTEERING,2354,587774.000,02000000,cdba,17399;SOL_COMPUTED,SINGLE,51.07877029888,-114.13134522947,1115.3635,-16.6000,WGS84,1.5616,1.1098,2.7736,"",0.000,0.000,28,26,26,25,00,06,35,37*76a41560
<BESTXYZ USB3 0 52.0 FINESTEERING 2354 587774.000 02000000 44cf 17399
<     SOL_COMPUTED SINGLE -1641822.3961 -3664959.4612 4939909.5963 1.5612 2.0067 2.2134 SOL_COMPUTED DOPPLER_VELOCITY 1.2001 -0.7620 0.1138 0.0402 0.0499 0.0585 "" 0.000 0.000 0.000 28 26 26 25 0 06 35 37
[USB3]
#BESTPOSA,USB3,0,52.0,FINESTEERING,2354,587775.000,02000800,cdba,17399;SOL_COMPUTED,SINGLE,51.07876554216,-114.13136042531,1121.5680,-16.6000,WGS84,1.5808,1.0437,2.5302,"",0.000,0.000,29,26,26,23,00,06,35,33*c9603323
<BESTXYZ USB3 0 52.0 FINESTEERING 2354 587775.000 02000800 44cf 17399
<     SOL_COMPUTED SINGLE -1641825.1301 -3664962.9589 4939914.0910 1.4215 1.9466 2.0445 SOL_COMPUTED DOPPLER_VELOCITY 1.3393 -0.6934 -0.1633 0.0366 0.0496 0.0614 "" 0.000 0.000 0.000 29 26 26 23 0 06 35 33
[USB3]
#BESTPOSA,USB3,0,51.0,FINESTEERING,2354,587776.000,02000800,cdba,17399;SOL_COMPUTED,SINGLE,51.07875936505,-114.13130408470,1113.8202,-16.6000,WGS84,1.5785,1.1006,2.7543,"",0.000,0.000,27,24,24,23,00,06,35,33*cd8c80d1
<BESTXYZ USB3 0 51.0 FINESTEERING 2354 587776.000 02000800 44cf 17399
<     SOL_COMPUTED SINGLE -1641819.7548 -3664960.6191 4939907.6313 1.5254 1.9916 2.2351 SOL_COMPUTED DOPPLER_VELOCITY 0.9405 -0.7042 0.0395 0.0364 0.0476 0.0613 "" 0.000 0.000 0.000 27 24 24 23 0 06 35 33
[USB3]
#BESTPOSA,USB3,0,50.0,FINESTEERING,2354,587777.000,02000000,cdba,17399;SOL_COMPUTED,SINGLE,51.07878701595,-114.13130788977,1117.9595,-16.6000,WGS84,1.4964,1.0654,2.6736,"",0.000,0.000,27,25,25,25,00,06,35,33*fa419d1d
<BESTXYZ USB3 0 50.0 FINESTEERING 2354 587777.000 02000000 44cf 17399
<     SOL_COMPUTED SINGLE -1641820.0828 -3664960.6988 4939912.7846 1.4951 1.9922 2.0780 SOL_COMPUTED DOPPLER_VELOCITY 1.0237 -0.5300 0.1493 0.0360 0.0503 0.0562 "" 0.000 0.000 0.000 27 25 25 25 0 06 35 33
[USB3]
#BESTPOSA,USB3,0,50.0,FINESTEERING,2354,587778.000,02000000,cdba,17399;SOL_COMPUTED,SINGLE,51.07878596361,-114.13128328405,1119.7458,-16.6000,WGS84,1.7805,1.0535,2.6144,"",0.000,0.000,28,26,26,22,00,06,35,37*d6bed0a3
<BESTXYZ USB3 0 50.0 FINESTEERING 2354 587778.000 02000000 44cf 17399
<     SOL_COMPUTED SINGLE -1641819.0049 -3664962.5112 4939914.1008 1.4426 1.9527 2.2851 SOL_COMPUTED DOPPLER_VELOCITY 1.3587 -0.4430 0.1474 0.0340 0.0444 0.0685 "" 0.000 0.000 0.000 28 26 26 22 0 06 35 37
[USB3]
#RXSTATUSEVENTA,USB3,0,50.0,FINESTEERING,2354,587778.020,02000800,b967,17399;AUX4,0,SET,"<60% available SVs tracked well"*911ee209
#BESTPOSA,USB3,0,50.5,FINESTEERING,2354,587779.000,02000000,cdba,17399;SOL_COMPUTED,SINGLE,51.07878179113,-114.13126883855,1119.1010,-16.6000,WGS84,1.5425,1.0029,2.4865,"",0.000,0.000,29,27,27,24,00,06,35,37*157dfac4
<BESTXYZ USB3 0 50.5 FINESTEERING 2354 587779.000 02000000 44cf 17399
<     SOL_COMPUTED SINGLE -1641818.0629 -3664962.8851 4939913.3075 1.3108 1.8915 2.0669 SOL_COMPUTED DOPPLER_VELOCITY 1.2496 -0.1513 0.3498 0.0350 0.0459 0.0736 "" 0.000 0.000 0.000 29 27 27 24 0 06 35 37
[USB3]
#BESTPOSA,USB3,0,49.0,FINESTEERING,2354,587780.000,02000800,cdba,17399;SOL_COMPUTED,SINGLE,51.07876458875,-114.13123685496,1113.1851,-16.6000,WGS84,1.4848,1.1364,2.8392,"",0.000,0.000,27,25,25,24,00,06,35,33*11b6a5db
<BESTXYZ USB3 0 49.0 FINESTEERING 2354 587780.000 02000800 44cf 17399
<     SOL_COMPUTED SINGLE -1641815.1064 -3664961.7688 4939907.5023 1.4393 2.0291 2.3168 SOL_COMPUTED DOPPLER_VELOCITY 1.3982 -0.2072 0.4381 0.0353 0.0492 0.0655 "" 0.000 0.000 0.000 27 25 25 24 0 06 35 33
[USB3]
#BESTPOSA,USB3,0,49.0,FINESTEERING,2354,587781.000,02000800,cdba,17399;SOL_COMPUTED,SINGLE,51.07877364511,-114.13122612279,1114.8199,-16.6000,WGS84,1.3775,1.1033,2.6131,"",0.000,0.000,28,26,26,25,00,06,35,37*1b49b2d6
<BESTXYZ USB3 0 49.0 FINESTEERING 2354 587781.000 02000800 44cf 17399
<     SOL_COMPUTED SINGLE -1641814.5193 -3664962.2982 4939909.4073 1.2974 1.8669 2.1850 SOL_COMPUTED DOPPLER_VELOCITY 1.2465 -0.3304 0.3886 0.0320 0.0437 0.0573 "" 0.000 0.000 0.000 28 26 26 25 0 06 35 37
[USB3]
#BESTPOSA,USB3,0,53.5,FINESTEERING,2354,587782.000,02000000,cdba,17399;SOL_COMPUTED,SINGLE,51.07879026022,-114.13120876165,1118.3570,-16.6000,WGS84,1.5129,1.1396,2.8112,"",0.000,0.000,28,25,25,25,00,06,35,37*0a4f5422
<BESTXYZ USB3 0 53.5 FINESTEERING 2354 587782.000 02000000 44cf 17399
<     SOL_COMPUTED SINGLE -1641813.7293 -3664963.5110 4939913.3207 1.2450 1.8417 2.5590 SOL_COMPUTED DOPPLER_VELOCITY 0.9422 -0.2973 0.1789 0.0321 0.0426 0.0608 "" 0.000 0.000 0.000 28 25 25 25 0 06 35 37
[USB3]
#BESTPOSA,USB3,0,53.5,FINESTEERING,2354,587783.000,02000000,cdba,17399;SOL_COMPUTED,SINGLE,51.07877091177,-114.13118082860,1113.7525,-16.6000,WGS84,1.4956,1.1593,2.8366,"",0.000,0.000,26,24,24,24,00,06,35,37*093bb533
<BESTXYZ USB3 0 53.5 FINESTEERING 2354 587783.000 02000000 44cf 17399
<     SOL_COMPUTED SINGLE -1641811.4446 -3664963.2000 4939908.3857 1.2298 1.8897 2.5580 SOL_COMPUTED DOPPLER_VELOCITY 1.0256 -0.4624 0.4661 0.0325 0.0462 0.0619 "" 0.000 0.000 0.000 26 24 24 24 0 06 35 37
[USB3]
#BESTPOSA,USB3,0,54.5,FINESTEERING,2354,587784.000,02000000,cdba,17399;SOL_COMPUTED,SINGLE,51.07877880600,-114.13116323930,1114.4889,-16.6000,WGS84,1.4069,1.0782,2.4893,"",0.000,0.000,29,26,26,24,00,06,35,37*af4eccda
<BESTXYZ USB3 0 54.5 FINESTEERING 2354 587784.000 02000000 44cf 17399
<     SOL_COMPUTED SINGLE -1641810.2293 -3664963.5026 4939909.5106 1.2182 1.7298 2.2050 SOL_COMPUTED DOPPLER_VELOCITY 0.9247 -0.1523 0.5647 0.0334 0.0469 0.0675 "" 0.000 0.000 0.000 29 26 26 24 0 06 35 37
[USB3]
#BESTPOSA,USB3,0,54.5,FINESTEERING,2354,587785.000,02000000,cdba,17399;SOL_COMPUTED,SINGLE,51.07878986019,-114.13114916451,1113.8488,-16.6000,WGS84,1.4732,1.1358,2.3933,"",0.000,0.000,30,26,26,24,00,06,35,37*ff2c5db5
<BESTXYZ USB3 0 54.5 FINESTEERING 2354 587785.000 02000000 44cf 17399
<     SOL_COMPUTED SINGLE -1641808.7733 -3664962.6656 4939909.7853 1.1494 1.7924 2.1573 SOL_COMPUTED DOPPLER_VELOCITY 1.2608 -0.2091 0.5073 0.0289 0.0435 0.0633 "" 0.000 0.000 0.000 30 26 26 24 0 06 35 37
[USB3]
#BESTPOSA,USB3,0,59.0,FINESTEERING,2354,587786.000,02000000,cdba,17399;SOL_COMPUTED,SINGLE,51.07878886178,-114.13113464053,1114.3578,-16.6000,WGS84,1.5999,1.1791,2.4910,"",0.000,0.000,25,22,22,22,00,06,35,33*762bbc98
<BESTXYZ USB3 0 59.0 FINESTEERING 2354 587786.000 02000000 44cf 17399
<     SOL_COMPUTED SINGLE -1641808.0104 -3664963.4525 4939910.1115 1.2188 1.9212 2.2313 SOL_COMPUTED DOPPLER_VELOCITY 1.2619 -0.2484 0.5074 0.0302 0.0494 0.0660 "" 0.000 0.000 0.000 25 22 22 22 0 06 35 33
[USB3]
#BESTPOSA,USB3,0,56.5,FINESTEERING,2354,587787.000,02000000,cdba,17399;SOL_COMPUTED,SINGLE,51.07880303451,-114.13111982500,1114.3721,-16.6000,WGS84,1.7852,1.1850,2.4917,"",0.000,0.000,25,23,23,22,00,06,35,33*b369456b
<BESTXYZ USB3 0 56.5 FINESTEERING 2354 587787.000 02000000 44cf 17399
<     SOL_COMPUTED SINGLE -1641806.5648 -3664962.7655 4939911.1134 1.1425 1.8251 2.4826 SOL_COMPUTED DOPPLER_VELOCITY 1.1065 -0.0537 0.6254 0.0303 0.0459 0.0719 "" 0.000 0.000 0.000 25 23 23 22 0 06 35 33
[USB3]
#BESTPOSA,USB3,0,54.0,FINESTEERING,2354,587788.000,02000000,cdba,17399;SOL_COMPUTED,SINGLE,51.07879641644,-114.13109976432,1113.6185,-16.6000,WGS84,1.4728,1.0887,2.2214,"",0.000,0.000,26,25,25,22,00,06,35,33*7056b31e
<BESTXYZ USB3 0 54.0 FINESTEERING 2354 587788.000 02000000 44cf 17399
<     SOL_COMPUTED SINGLE -1641805.3222 -3664963.4311 4939910.0644 1.1480 1.5788 2.1163 SOL_COMPUTED DOPPLER_VELOCITY 1.0766 -0.0182 0.4327 0.0300 0.0492 0.0644 "" 0.000 0.000 0.000 26 25 25 22 0 06 35 33
[USB3]
#BESTPOSA,USB3,0,54.0,FINESTEERING,2354,587789.000,02000000,cdba,17399;SOL_COMPUTED,SINGLE,51.07880345952,-114.13108523265,1113.6688,-16.6000,WGS84,1.4988,1.1641,2.3462,"",0.000,0.000,26,25,25,24,00,06,35,33*56ee1170
<BESTXYZ USB3 0 54.0 FINESTEERING 2354 587789.000 02000000 44cf 17399
<     SOL_COMPUTED SINGLE -1641804.1564 -3664963.3200 4939910.5959 1.1427 1.7875 2.1459 SOL_COMPUTED DOPPLER_VELOCITY 1.5165 0.1067 0.0371 0.0310 0.0528 0.0642 "" 0.000 0.000 0.000 26 25 25 24 0 06 35 33
[USB3]
#BESTPOSA,USB3,0,60.5,FINESTEERING,2354,587790.000,02000000,cdba,17399;SOL_COMPUTED,SINGLE,51.07885597870,-114.13109719911,1121.4221,-16.6000,WGS84,1.4187,1.1199,2.3673,"",0.000,0.000,26,25,25,22,00,06,35,37*2844deeb
<BESTXYZ USB3 0 60.5 FINESTEERING 2354 587790.000 02000000 44cf 17399
<     SOL_COMPUTED SINGLE -1641805.0545 -3664963.2732 4939920.2994 1.1343 1.7619 2.1165 SOL_COMPUTED DOPPLER_VELOCITY 1.1627 -0.0627 -0.0197 0.0302 0.0507 0.0639 "" 0.000 0.000 0.000 26 25 25 22 0 06 35 37
[USB3]
#BESTPOSA,USB3,0,57.0,FINESTEERING,2354,587791.000,02000000,cdba,17399;SOL_COMPUTED,SINGLE,51.07883846195,-114.13108242993,1117.0707,-16.6000,WGS84,1.3720,1.1119,2.2436,"",0.000,0.000,26,25,25,25,00,06,35,37*90bd81f9
<BESTXYZ USB3 0 57.0 FINESTEERING 2354 587791.000 02000000 44cf 17399
<     SOL_COMPUTED SINGLE -1641803.6121 -3664962.5854 4939915.6895 1.1043 1.7613 1.9572 SOL_COMPUTED DOPPLER_VELOCITY 1.0088 -0.2005 0.0268 0.0317 0.0519 0.0747 "" 0.000 0.000 0.000 26 25 25 25 0 06 35 37
[USB3]
#BESTPOSA,USB3,0,57.0,FINESTEERING,2354,587792.000,02000000,cdba,17399;SOL_COMPUTED,SINGLE,51.07885965852,-114.13106653214,1120.2443,-16.6000,WGS84,1.4326,1.1271,2.3192,"",0.000,0.000,25,24,24,23,00,06,35,37*aa2c4020
<BESTXYZ USB3 0 57.0 FINESTEERING 2354 587792.000 02000000 44cf 17399
<     SOL_COMPUTED SINGLE -1641802.6601 -3664963.1859 4939919.6403 1.1095 1.7796 2.0745 SOL_COMPUTED DOPPLER_VELOCITY 0.9945 0.0675 0.0342 0.0330 0.0595 0.0855 "" 0.000 0.000 0.000 25 24 24 23 0 06 35 37
[USB3]
#BESTPOSA,USB3,0,63.0,FINESTEERING,2354,587793.000,02000000,cdba,17399;SOL_COMPUTED,SINGLE,51.07882709593,-114.13102354614,1115.9977,-16.6000,WGS84,1.5979,1.1868,2.4632,"",0.000,0.000,24,23,23,23,00,06,35,33*9c064090
<BESTXYZ USB3 0 63.0 FINESTEERING 2354 587793.000 02000000 44cf 17399
<     SOL_COMPUTED SINGLE -1641799.9722 -3664964.5555 4939914.0602 1.2634 1.9073 2.1899 SOL_COMPUTED DOPPLER_VELOCITY 0.9987 -0.0242 0.5554 0.0321 0.0524 0.0728 "" 0.000 0.000 0.000 24 23 23 23 0 06 35 33
[USB3]
#BESTPOSA,USB3,0,65.5,FINESTEERING,2354,587794.000,02000000,cdba,17399;SOL_COMPUTED,SINGLE,51.07883729416,-114.13101637573,1116.1296,-16.6000,WGS84,1.4930,1.1846,2.4284,"",0.000,0.000,25,24,24,23,00,06,35,37*b78b6319
<BESTXYZ USB3 0 65.5 FINESTEERING 2354 587794.000 02000000 44cf 17399
<     SOL_COMPUTED SINGLE -1641799.1865 -3664964.0309 4939914.8756 1.1599 1.8137 2.2123 SOL_COMPUTED DOPPLER_VELOCITY 1.0748 -0.2272 0.3622 0.0323 0.0528 0.0760 "" 0.000 0.000 0.000 25 24 24 23 0 06 35 37
[USB3]
#BESTPOSA,USB3,0,62.0,FINESTEERING,2354,587795.000,02000000,cdba,17399;SOL_COMPUTED,SINGLE,51.07882440094,-114.13097929399,1121.7591,-16.6000,WGS84,1.3257,1.1975,2.3216,"",0.000,0.000,25,24,24,22,00,06,35,37*fdb7b579
<BESTXYZ USB3 0 62.0 FINESTEERING 2354 587795.000 02000000 44cf 17399
<     SOL_COMPUTED SINGLE -1641798.7167 -3664969.3397 4939918.3541 1.1124 1.8502 1.9801 SOL_COMPUTED DOPPLER_VELOCITY 1.1653 -0.1261 0.5344 0.0364 0.0619 0.0881 "" 0.000 0.000 0.000 25 24 24 22 0 06 35 37
[USB3]
#BESTPOSA,USB3,0,62.0,FINESTEERING,2354,587796.000,02000000,cdba,17399;SOL_COMPUTED,SINGLE,51.07882843051,-114.13094241063,1120.6246,-16.6000,WGS84,1.3147,1.2333,2.4168,"",0.000,0.000,24,23,23,22,00,06,35,37*b0888356
<BESTXYZ USB3 0 62.0 FINESTEERING 2354 587796.000 02000000 44cf 17399
<     SOL_COMPUTED SINGLE -1641795.9234 -3664969.4278 4939917.7532 1.1493 1.8587 2.0773 SOL_COMPUTED DOPPLER_VELOCITY 1.2017 -0.2606 0.1483 0.0387 0.0754 0.0771 "" 0.000 0.000 0.000 24 23 23 22 0 06 35 37
[USB3]
#BESTPOSA,USB3,0,62.5,FINESTEERING,2354,587797.000,02000000,cdba,17399;SOL_COMPUTED,SINGLE,51.07885163958,-114.13097252532,1115.0669,-16.6000,WGS84,1.5384,1.7757,3.1156,"",0.000,0.000,22,21,21,19,00,06,35,37*c3bbb090
<BESTXYZ USB3 0 62.5 FINESTEERING 2354 587797.000 02000000 44cf 17399
